$ADVER,3080,2.5P
$GPRMC,122833.029,A,4851.8214,N,00226.9127,E,0.27,117.87,091212,,,A*64
$GPGGA,122836.030,4851.8273,N,00226.9146,E,1,03,4.2,-47.3,M,47.3,M,,0000*41
$GPRMC,122836.030,A,4851.8273,N,00226.9146,E,1.35,82.85,091212,,,A*52
$GPGGA,122837.030,4851.8248,N,00226.9018,E,1,03,4.2,-47.3,M,47.3,M,,0000*42
$GPRMC,122837.030,A,4851.8248,N,00226.9018,E,0.04,138.42,091212,,,A*69
$GPGGA,122838.030,4851.8274,N,00226.9134,E,1,03,4.2,-47.3,M,47.3,M,,0000*4D
$GPRMC,122838.030,A,4851.8274,N,00226.9134,E,0.15,101.99,091212,,,A*6A
$GPGGA,122839.030,4851.8233,N,00226.9051,E,1,03,4.2,-47.3,M,47.3,M,,0000*4D
$GPRMC,122839.030,A,4851.8233,N,00226.9051,E,0.19,107.02,091212,,,A*62
$GPGGA,122840.030,4851.8230,N,00226.9165,E,1,03,4.2,-47.3,M,47.3,M,,0000*46
$GPRMC,122840.030,A,4851.8230,N,00226.9165,E,0.15,83.30,091212,,,A*59
$GPGGA,122841.030,4851.8281,N,00226.9067,E,1,03,4.2,-47.3,M,47.3,M,,0000*4E
$GPRMC,122841.030,A,4851.8281,N,00226.9067,E,0.16,113.46,091212,,,A*6B
$GPGGA,122842.030,4851.8280,N,00226.8974,E,1,03,4.2,-47.3,M,47.3,M,,0000*46
$GPRMC,122842.030,A,4851.8280,N,00226.8974,E,0.27,93.93,091212,,,A*50
$GPGGA,122843.030,4851.8247,N,00226.9059,E,1,03,4.2,-47.3,M,47.3,M,,0000*4B
$GPRMC,122843.030,A,4851.8247,N,00226.9059,E,0.09,139.34,091212,,,A*6D
$GPGGA,122844.030,4851.8261,N,00226.9082,E,1,03,4.2,-47.3,M,47.3,M,,0000*4E
$GPRMC,122844.030,A,4851.8261,N,00226.9082,E,0.10,110.80,091212,,,A*64
$GPGGA,122845.030,4851.8260,N,00226.9088,E,1,03,4.2,-47.3,M,47.3,M,,0000*44
$GPRMC,122845.030,A,4851.8260,N,00226.9088,E,0.12,78.96,091212,,,A*54
$GPGGA,122846.030,4851.8246,N,00226.9106,E,1,03,4.2,-47.3,M,47.3,M,,0000*44
$GPRMC,122846.030,A,4851.8246,N,00226.9106,E,0.09,105.55,091212,,,A*6A
$GPGGA,122847.030,4851.8263,N,00226.9027,E,1,03,4.2,-47.3,M,47.3,M,,0000*40
$GPRMC,122847.030,A,4851.8263,N,00226.9027,E,1.48,114.37,091212,,,A*6E
$GPGGA,122848.030,4851.8264,N,00226.8991,E,1,03,4.2,-47.3,M,47.3,M,,0000*4D
$GPRMC,122848.030,A,4851.8264,N,00226.8991,E,0.46,103.10,091212,,,A*6F
$GPGGA,122849.030,4851.8262,N,00226.9020,E,1,03,4.2,-47.3,M,47.3,M,,0000*48
$GPRMC,122849.030,A,4851.8262,N,00226.9020,E,0.16,110.99,091212,,,A*6C
$GPGGA,122850.030,4851.8277,N,00226.9009,E,1,03,4.2,-47.3,M,47.3,M,,0000*4F
$GPRMC,122850.030,A,4851.8277,N,00226.9009,E,0.19,73.64,091212,,,A*52
$GPGGA,122851.030,4851.8276,N,00226.9014,E,1,03,4.2,-47.3,M,47.3,M,,0000*43
$GPRMC,122851.030,A,4851.8276,N,00226.9014,E,0.11,124.10,091212,,,A*66
$GPGGA,122852.030,4851.8276,N,00226.9022,E,1,03,4.2,-47.3,M,47.3,M,,0000*45
$GPRMC,122852.030,A,4851.8276,N,00226.9022,E,0.26,111.44,091212,,,A*63
$GPGGA,122853.030,4851.8280,N,00226.9014,E,1,03,4.2,-47.3,M,47.3,M,,0000*48
$GPRMC,122853.030,A,4851.8280,N,00226.9014,E,0.04,133.74,091212,,,A*6D
$GPGGA,122854.030,4851.8286,N,00226.9010,E,1,03,4.2,-47.3,M,47.3,M,,0000*4D
$GPRMC,122854.030,A,4851.8286,N,00226.9010,E,0.34,98.77,091212,,,A*58
$GPGGA,122855.030,4851.8284,N,00226.9017,E,1,03,4.2,-47.3,M,47.3,M,,0000*49
$GPRMC,122855.030,A,4851.8284,N,00226.9017,E,0.10,69.62,091212,,,A*50
$GPGGA,122856.030,4851.8284,N,00226.9016,E,1,03,4.2,-47.3,M,47.3,M,,0000*4B
$GPRMC,122856.030,A,4851.8284,N,00226.9016,E,0.24,96.53,091212,,,A*57
$GPGGA,122857.030,4851.8290,N,00226.9008,E,1,03,4.2,-47.3,M,47.3,M,,0000*40
$GPRMC,122857.030,A,4851.8290,N,00226.9008,E,0.11,146.46,091212,,,A*62
$GPGGA,122858.030,4851.8292,N,00226.9001,E,1,03,4.2,-47.3,M,47.3,M,,0000*44
$GPRMC,122858.030,A,4851.8292,N,00226.9001,E,0.09,84.71,091212,,,A*54
$GPGGA,122859.030,4851.8294,N,00226.8999,E,1,03,4.2,-47.3,M,47.3,M,,0000*4A
$GPRMC,122859.030,A,4851.8294,N,00226.8999,E,0.19,76.54,091212,,,A*51
$GPGGA,122900.030,4851.8294,N,00226.8998,E,1,03,4.2,-47.3,M,47.3,M,,0000*46
$GPRMC,122900.030,A,4851.8294,N,00226.8998,E,0.03,83.73,091212,,,A*59
$GPGGA,122901.030,4851.8293,N,00226.9001,E,1,03,4.2,-47.3,M,47.3,M,,0000*48
$GPRMC,122901.030,A,4851.8293,N,00226.9001,E,0.28,103.77,091212,,,A*63
$GPGGA,122902.030,4851.8291,N,00226.9002,E,1,03,4.2,-47.3,M,47.3,M,,0000*4A
$GPRMC,122902.030,A,4851.8291,N,00226.9002,E,0.17,134.99,091212,,,A*69
$GPGGA,122903.030,4851.8198,N,00226.8516,E,1,04,3.5,40.5,M,47.3,M,,0000*6B
$GPRMC,122903.030,A,4851.8198,N,00226.8516,E,0.11,58.33,091212,,,A*5E
$GPGGA,122904.030,4851.8182,N,00226.8427,E,1,04,3.5,55.3,M,47.3,M,,0000*66
$GPRMC,122904.030,A,4851.8182,N,00226.8427,E,0.12,52.70,091212,,,A*5F
$GPGGA,122905.030,4851.8178,N,00226.8412,E,1,04,3.5,59.2,M,47.3,M,,0000*69
$GPRMC,122905.030,A,4851.8178,N,00226.8412,E,0.17,102.02,091212,,,A*69
$GPGGA,122906.000,4851.8176,N,00226.8405,E,1,04,3.5,60.7,M,47.3,M,,0000*6E
$GPRMC,122906.000,A,4851.8176,N,00226.8405,E,0.00,102.02,091212,,,A*67
$GPGGA,122907.000,4851.8176,N,00226.8405,E,1,04,3.5,60.7,M,47.3,M,,0000*6F
$GPRMC,122907.000,A,4851.8176,N,00226.8405,E,0.00,102.02,091212,,,A*66
$GPGGA,122908.000,4851.8176,N,00226.8405,E,1,04,3.5,60.7,M,47.3,M,,0000*60
$GPRMC,122908.000,A,4851.8176,N,00226.8405,E,0.00,102.02,091212,,,A*69
$GPGGA,122909.000,4851.8176,N,00226.8405,E,1,04,3.5,60.7,M,47.3,M,,0000*61
$GPRMC,122909.000,A,4851.8176,N,00226.8405,E,0.00,102.02,091212,,,A*68
$GPGGA,122910.000,4851.8176,N,00226.8405,E,1,04,3.5,60.7,M,47.3,M,,0000*69
$GPRMC,122910.000,A,4851.8176,N,00226.8405,E,0.00,102.02,091212,,,A*60
$GPGGA,122911.000,4851.8176,N,00226.8405,E,1,04,3.5,60.7,M,47.3,M,,0000*68
$GPRMC,122911.000,A,4851.8176,N,00226.8405,E,0.00,102.02,091212,,,A*61
$GPGGA,122912.000,4851.8176,N,00226.8405,E,1,04,3.5,60.7,M,47.3,M,,0000*6B
$GPRMC,122912.000,A,4851.8176,N,00226.8405,E,0.00,102.02,091212,,,A*62
$GPGGA,122913.000,4851.8176,N,00226.8405,E,1,04,3.5,60.7,M,47.3,M,,0000*6A
$GPRMC,122913.000,A,4851.8176,N,00226.8405,E,0.00,102.02,091212,,,A*63
$GPGGA,122914.000,4851.8176,N,00226.8405,E,1,04,3.5,60.7,M,47.3,M,,0000*6D
$GPRMC,122914.000,A,4851.8176,N,00226.8405,E,0.00,102.02,091212,,,A*64
$GPGGA,122915.000,4851.8176,N,00226.8405,E,1,04,3.5,60.7,M,47.3,M,,0000*6C
$GPRMC,122915.000,A,4851.8176,N,00226.8405,E,0.00,102.02,091212,,,A*65
$GPGGA,122916.000,4851.8176,N,00226.8405,E,1,04,3.5,60.7,M,47.3,M,,0000*6F
$GPRMC,122916.000,A,4851.8176,N,00226.8405,E,0.00,102.02,091212,,,A*66
$GPGGA,122917.000,4851.8176,N,00226.8405,E,1,04,3.5,60.7,M,47.3,M,,0000*6E
$GPRMC,122917.000,A,4851.8176,N,00226.8405,E,0.00,102.02,091212,,,A*67
$GPGGA,122918.000,4851.8176,N,00226.8405,E,1,04,3.5,60.7,M,47.3,M,,0000*61
$GPRMC,122918.000,A,4851.8176,N,00226.8405,E,0.00,102.02,091212,,,A*68
$GPGGA,122919.000,4851.8176,N,00226.8405,E,1,04,3.5,60.7,M,47.3,M,,0000*60
$GPRMC,122919.000,A,4851.8176,N,00226.8405,E,0.00,102.02,091212,,,A*69
$GPGGA,122920.000,4851.8176,N,00226.8405,E,1,04,3.5,60.7,M,47.3,M,,0000*6A
$GPRMC,122920.000,A,4851.8176,N,00226.8405,E,0.00,102.02,091212,,,A*63
$GPGGA,122921.000,4851.8176,N,00226.8405,E,1,04,3.5,60.7,M,47.3,M,,0000*6B
$GPRMC,122921.000,A,4851.8176,N,00226.8405,E,0.00,102.02,091212,,,A*62
$GPGGA,122922.000,4851.8176,N,00226.8405,E,1,04,3.5,60.7,M,47.3,M,,0000*68
$GPRMC,122922.000,A,4851.8176,N,00226.8405,E,0.00,102.02,091212,,,A*61
$GPGGA,122923.000,4851.8176,N,00226.8405,E,1,04,3.5,60.7,M,47.3,M,,0000*69
$GPRMC,122923.000,A,4851.8176,N,00226.8405,E,0.00,102.02,091212,,,A*60
$GPGGA,122924.000,4851.8176,N,00226.8405,E,1,04,3.5,60.7,M,47.3,M,,0000*6E
$GPRMC,122924.000,A,4851.8176,N,00226.8405,E,0.00,102.02,091212,,,A*67
$GPGGA,122925.000,4851.8176,N,00226.8405,E,1,04,3.5,60.7,M,47.3,M,,0000*6F
$GPRMC,122925.000,A,4851.8176,N,00226.8405,E,0.00,102.02,091212,,,A*66
$GPGGA,122926.000,4851.8176,N,00226.8405,E,1,04,3.5,60.7,M,47.3,M,,0000*6C
$GPRMC,122926.000,A,4851.8176,N,00226.8405,E,0.00,102.02,091212,,,A*65
$GPGGA,122927.000,4851.8176,N,00226.8405,E,1,04,3.5,60.7,M,47.3,M,,0000*6D
$GPRMC,122927.000,A,4851.8176,N,00226.8405,E,0.00,102.02,091212,,,A*64
$GPGGA,122928.000,4851.8176,N,00226.8405,E,1,04,3.5,60.7,M,47.3,M,,0000*62
$GPRMC,122928.000,A,4851.8176,N,00226.8405,E,0.00,102.02,091212,,,A*6B
$GPGGA,122929.000,4851.8176,N,00226.8405,E,1,04,3.5,60.7,M,47.3,M,,0000*63
$GPRMC,122929.000,A,4851.8176,N,00226.8405,E,0.00,102.02,091212,,,A*6A
$GPGGA,122930.000,4851.8176,N,00226.8405,E,1,04,3.5,60.7,M,47.3,M,,0000*6B
$GPRMC,122930.000,A,4851.8176,N,00226.8405,E,0.00,102.02,091212,,,A*62
$GPGGA,122931.000,4851.8176,N,00226.8405,E,1,04,3.5,60.7,M,47.3,M,,0000*6A
$GPRMC,122931.000,A,4851.8176,N,00226.8405,E,0.00,102.02,091212,,,A*63
$GPGGA,122932.000,4851.8176,N,00226.8405,E,1,04,3.5,60.7,M,47.3,M,,0000*69
$GPRMC,122932.000,A,4851.8176,N,00226.8405,E,0.00,102.02,091212,,,A*60
$GPGGA,122933.000,4851.8176,N,00226.8405,E,1,04,3.5,60.7,M,47.3,M,,0000*68
$GPRMC,122933.000,A,4851.8176,N,00226.8405,E,0.00,102.02,091212,,,A*61
$GPGGA,122934.000,4851.8176,N,00226.8405,E,1,04,3.5,60.7,M,47.3,M,,0000*6F
$GPRMC,122934.000,A,4851.8176,N,00226.8405,E,0.00,102.02,091212,,,A*66
$GPGGA,122935.000,4851.8176,N,00226.8405,E,1,04,3.5,60.7,M,47.3,M,,0000*6E
$GPRMC,122935.000,A,4851.8176,N,00226.8405,E,0.00,102.02,091212,,,A*67
$GPGGA,122936.000,4851.8176,N,00226.8405,E,1,04,3.5,60.7,M,47.3,M,,0000*6D
$GPRMC,122936.000,A,4851.8176,N,00226.8405,E,0.00,102.02,091212,,,A*64
$GPGGA,122937.000,4851.8176,N,00226.8405,E,1,04,3.5,60.7,M,47.3,M,,0000*6C
$GPRMC,122937.000,A,4851.8176,N,00226.8405,E,0.00,102.02,091212,,,A*65
$GPGGA,122938.000,4851.8176,N,00226.8405,E,1,04,3.5,60.7,M,47.3,M,,0000*63
$GPRMC,122938.000,A,4851.8176,N,00226.8405,E,0.00,102.02,091212,,,A*6A
$GPGGA,122939.000,4851.8176,N,00226.8405,E,1,04,3.5,60.7,M,47.3,M,,0000*62
$GPRMC,122939.000,A,4851.8176,N,00226.8405,E,0.00,102.02,091212,,,A*6B
$GPGGA,122940.000,4851.8176,N,00226.8405,E,1,04,3.5,60.7,M,47.3,M,,0000*6C
$GPRMC,122940.000,A,4851.8176,N,00226.8405,E,0.00,102.02,091212,,,A*65
$GPGGA,122941.000,4851.8176,N,00226.8405,E,1,04,3.5,60.7,M,47.3,M,,0000*6D
$GPRMC,122941.000,A,4851.8176,N,00226.8405,E,0.00,102.02,091212,,,A*64
$GPGGA,122942.000,4851.8176,N,00226.8405,E,1,04,3.5,60.7,M,47.3,M,,0000*6E
$GPRMC,122942.000,A,4851.8176,N,00226.8405,E,0.00,102.02,091212,,,A*67
$GPGGA,122943.000,4851.8176,N,00226.8405,E,1,04,3.5,60.7,M,47.3,M,,0000*6F
$GPRMC,122943.000,A,4851.8176,N,00226.8405,E,0.00,102.02,091212,,,A*66
$GPGGA,122944.000,4851.8176,N,00226.8405,E,1,04,3.5,60.7,M,47.3,M,,0000*68
$GPRMC,122944.000,A,4851.8176,N,00226.8405,E,0.00,102.02,091212,,,A*61
$GPGGA,122945.000,4851.8176,N,00226.8405,E,1,04,3.5,60.7,M,47.3,M,,0000*69
$GPRMC,122945.000,A,4851.8176,N,00226.8405,E,0.00,102.02,091212,,,A*60
$GPGGA,122946.000,4851.8176,N,00226.8405,E,1,04,3.5,60.7,M,47.3,M,,0000*6A
$GPRMC,122946.000,A,4851.8176,N,00226.8405,E,0.00,102.02,091212,,,A*63
$GPGGA,122947.000,4851.8176,N,00226.8405,E,1,04,3.5,60.7,M,47.3,M,,0000*6B
$GPRMC,122947.000,A,4851.8176,N,00226.8405,E,0.00,102.02,091212,,,A*62
$GPGGA,122948.000,4851.8176,N,00226.8405,E,1,04,3.5,60.7,M,47.3,M,,0000*64
$GPRMC,122948.000,A,4851.8176,N,00226.8405,E,0.00,102.02,091212,,,A*6D
$GPGGA,122949.000,4851.8176,N,00226.8405,E,1,04,3.5,60.7,M,47.3,M,,0000*65
$GPRMC,122949.000,A,4851.8176,N,00226.8405,E,0.00,102.02,091212,,,A*6C
$GPGGA,122950.000,4851.8176,N,00226.8405,E,1,04,3.5,60.7,M,47.3,M,,0000*6D
$GPRMC,122950.000,A,4851.8176,N,00226.8405,E,0.00,102.02,091212,,,A*64
$GPGGA,122951.000,4851.8176,N,00226.8405,E,1,04,3.5,60.7,M,47.3,M,,0000*6C
$GPRMC,122951.000,A,4851.8176,N,00226.8405,E,0.00,102.02,091212,,,A*65
$GPGGA,122952.000,4851.8176,N,00226.8405,E,1,04,3.5,60.7,M,47.3,M,,0000*6F
$GPRMC,122952.000,A,4851.8176,N,00226.8405,E,0.00,102.02,091212,,,A*66
$GPGGA,122953.000,4851.8176,N,00226.8405,E,1,04,3.5,60.7,M,47.3,M,,0000*6E
$GPRMC,122953.000,A,4851.8176,N,00226.8405,E,0.00,102.02,091212,,,A*67
$GPGGA,122954.000,4851.8176,N,00226.8405,E,1,04,3.5,60.7,M,47.3,M,,0000*69
$GPRMC,122954.000,A,4851.8176,N,00226.8405,E,0.00,102.02,091212,,,A*60
$GPGGA,122955.000,4851.8176,N,00226.8405,E,1,04,3.5,60.7,M,47.3,M,,0000*68
$GPRMC,122955.000,A,4851.8176,N,00226.8405,E,0.00,102.02,091212,,,A*61
$GPGGA,122956.000,4851.8176,N,00226.8405,E,1,04,3.5,60.7,M,47.3,M,,0000*6B
$GPRMC,122956.000,A,4851.8176,N,00226.8405,E,0.00,102.02,091212,,,A*62
$GPGGA,122957.000,4851.8176,N,00226.8405,E,1,04,3.5,60.7,M,47.3,M,,0000*6A
$GPRMC,122957.000,A,4851.8176,N,00226.8405,E,0.00,102.02,091212,,,A*63
$GPGGA,122958.000,4851.8176,N,00226.8405,E,1,04,3.5,60.7,M,47.3,M,,0000*65
$GPRMC,122958.000,A,4851.8176,N,00226.8405,E,0.00,102.02,091212,,,A*6C
$GPGGA,122959.000,4851.8176,N,00226.8405,E,1,04,3.5,60.7,M,47.3,M,,0000*64
$GPRMC,122959.000,A,4851.8176,N,00226.8405,E,0.00,102.02,091212,,,A*6D
$GPGGA,123000.000,4851.8176,N,00226.8405,E,1,04,3.5,60.7,M,47.3,M,,0000*60
$GPRMC,123000.000,A,4851.8176,N,00226.8405,E,0.00,102.02,091212,,,A*69
$GPGGA,123001.000,4851.8176,N,00226.8405,E,1,04,3.5,60.7,M,47.3,M,,0000*61
$GPRMC,123001.000,A,4851.8176,N,00226.8405,E,0.00,102.02,091212,,,A*68
$GPGGA,123002.000,4851.8176,N,00226.8405,E,1,04,3.5,60.7,M,47.3,M,,0000*62
$GPRMC,123002.000,A,4851.8176,N,00226.8405,E,0.00,102.02,091212,,,A*6B
$GPGGA,123003.000,4851.8176,N,00226.8405,E,1,04,3.5,60.7,M,47.3,M,,0000*63
$GPRMC,123003.000,A,4851.8176,N,00226.8405,E,0.00,102.02,091212,,,A*6A
$GPGGA,123004.000,4851.8176,N,00226.8405,E,1,04,3.5,60.7,M,47.3,M,,0000*64
$GPRMC,123004.000,A,4851.8176,N,00226.8405,E,0.00,102.02,091212,,,A*6D
$GPGGA,123005.000,4851.8176,N,00226.8405,E,1,04,3.5,60.7,M,47.3,M,,0000*65
$GPRMC,123005.000,A,4851.8176,N,00226.8405,E,0.00,102.02,091212,,,A*6C
$GPGGA,123006.000,4851.8176,N,00226.8405,E,1,04,3.5,60.7,M,47.3,M,,0000*66
$GPRMC,123006.000,A,4851.8176,N,00226.8405,E,0.00,102.02,091212,,,A*6F
$GPGGA,123007.000,4851.8176,N,00226.8405,E,1,04,3.5,60.7,M,47.3,M,,0000*67
$GPRMC,123007.000,A,4851.8176,N,00226.8405,E,0.00,102.02,091212,,,A*6E
$GPGGA,123008.000,4851.8176,N,00226.8405,E,1,04,3.5,60.7,M,47.3,M,,0000*68
$GPRMC,123008.000,A,4851.8176,N,00226.8405,E,0.00,102.02,091212,,,A*61
$GPGGA,123009.000,4851.8176,N,00226.8405,E,1,04,3.5,60.7,M,47.3,M,,0000*69
$GPRMC,123009.000,A,4851.8176,N,00226.8405,E,0.00,102.02,091212,,,A*60
$GPGGA,123010.000,4851.8176,N,00226.8405,E,1,04,3.5,60.7,M,47.3,M,,0000*61
$GPRMC,123010.000,A,4851.8176,N,00226.8405,E,0.00,102.02,091212,,,A*68
$GPGGA,123011.000,4851.8176,N,00226.8405,E,1,04,3.5,60.7,M,47.3,M,,0000*60
$GPRMC,123011.000,A,4851.8176,N,00226.8405,E,0.00,102.02,091212,,,A*69
$GPGGA,123012.000,4851.8176,N,00226.8405,E,1,04,3.5,60.7,M,47.3,M,,0000*63
$GPRMC,123012.000,A,4851.8176,N,00226.8405,E,0.00,102.02,091212,,,A*6A
$GPGGA,123013.000,4851.8176,N,00226.8405,E,1,04,3.5,60.7,M,47.3,M,,0000*62
$GPRMC,123013.000,A,4851.8176,N,00226.8405,E,0.00,102.02,091212,,,A*6B
$GPGGA,123014.000,4851.8176,N,00226.8405,E,1,04,3.5,60.7,M,47.3,M,,0000*65
$GPRMC,123014.000,A,4851.8176,N,00226.8405,E,0.00,102.02,091212,,,A*6C
$GPGGA,123015.000,4851.8176,N,00226.8405,E,1,04,3.5,60.7,M,47.3,M,,0000*64
$GPRMC,123015.000,A,4851.8176,N,00226.8405,E,0.00,102.02,091212,,,A*6D
$GPGGA,123016.000,4851.8176,N,00226.8405,E,1,04,3.5,60.7,M,47.3,M,,0000*67
$GPRMC,123016.000,A,4851.8176,N,00226.8405,E,0.00,102.02,091212,,,A*6E
$GPGGA,123017.000,4851.8176,N,00226.8405,E,1,04,3.5,60.7,M,47.3,M,,0000*66
$GPRMC,123017.000,A,4851.8176,N,00226.8405,E,0.00,102.02,091212,,,A*6F
$GPGGA,123018.000,4851.8176,N,00226.8405,E,1,04,3.5,60.7,M,47.3,M,,0000*69
$GPRMC,123018.000,A,4851.8176,N,00226.8405,E,0.00,102.02,091212,,,A*60
$GPGGA,123019.000,4851.8176,N,00226.8405,E,1,04,3.5,60.7,M,47.3,M,,0000*68
$GPRMC,123019.000,A,4851.8176,N,00226.8405,E,0.00,102.02,091212,,,A*61
$GPGGA,123020.000,4851.8176,N,00226.8405,E,1,04,3.5,60.7,M,47.3,M,,0000*62
$GPRMC,123020.000,A,4851.8176,N,00226.8405,E,0.00,102.02,091212,,,A*6B
$GPGGA,123021.000,4851.8176,N,00226.8405,E,1,04,3.5,60.7,M,47.3,M,,0000*63
$GPRMC,123021.000,A,4851.8176,N,00226.8405,E,0.00,102.02,091212,,,A*6A
$GPGGA,123022.000,4851.8176,N,00226.8405,E,1,04,3.5,60.7,M,47.3,M,,0000*60
$GPRMC,123022.000,A,4851.8176,N,00226.8405,E,0.00,102.02,091212,,,A*69
$GPGGA,123023.000,4851.8176,N,00226.8405,E,1,04,3.5,60.7,M,47.3,M,,0000*61
$GPRMC,123023.000,A,4851.8176,N,00226.8405,E,0.00,102.02,091212,,,A*68
$GPGGA,123024.000,4851.8176,N,00226.8405,E,1,04,3.5,60.7,M,47.3,M,,0000*66
$GPRMC,123024.000,A,4851.8176,N,00226.8405,E,0.00,102.02,091212,,,A*6F
$GPGGA,123025.000,4851.8176,N,00226.8405,E,1,04,3.5,60.7,M,47.3,M,,0000*67
$GPRMC,123025.000,A,4851.8176,N,00226.8405,E,0.00,102.02,091212,,,A*6E
$GPGGA,123026.000,4851.8176,N,00226.8405,E,1,04,3.5,60.7,M,47.3,M,,0000*64
$GPRMC,123026.000,A,4851.8176,N,00226.8405,E,0.00,102.02,091212,,,A*6D
$GPGGA,123027.000,4851.8176,N,00226.8405,E,1,04,3.5,60.7,M,47.3,M,,0000*65
$GPRMC,123027.000,A,4851.8176,N,00226.8405,E,0.00,102.02,091212,,,A*6C
$GPGGA,123028.000,4851.8176,N,00226.8405,E,1,04,3.5,60.7,M,47.3,M,,0000*6A
$GPRMC,123028.000,A,4851.8176,N,00226.8405,E,0.00,102.02,091212,,,A*63
$GPGGA,123029.000,4851.8176,N,00226.8405,E,1,04,3.5,60.7,M,47.3,M,,0000*6B
$GPRMC,123029.000,A,4851.8176,N,00226.8405,E,0.00,102.02,091212,,,A*62
$GPGGA,123030.000,4851.8176,N,00226.8405,E,1,04,3.5,60.7,M,47.3,M,,0000*63
$GPRMC,123030.000,A,4851.8176,N,00226.8405,E,0.00,102.02,091212,,,A*6A
$GPGGA,123031.000,4851.8176,N,00226.8405,E,1,04,3.5,60.7,M,47.3,M,,0000*62
$GPRMC,123031.000,A,4851.8176,N,00226.8405,E,0.00,102.02,091212,,,A*6B
$GPGGA,123032.000,4851.8176,N,00226.8405,E,1,04,3.5,60.7,M,47.3,M,,0000*61
$GPRMC,123032.000,A,4851.8176,N,00226.8405,E,0.00,102.02,091212,,,A*68
$GPGGA,123033.000,4851.8176,N,00226.8405,E,1,04,3.5,60.7,M,47.3,M,,0000*60
$GPRMC,123033.000,A,4851.8176,N,00226.8405,E,0.00,102.02,091212,,,A*69
$GPGGA,123034.000,4851.8176,N,00226.8405,E,1,04,3.5,60.7,M,47.3,M,,0000*67
$GPRMC,123034.000,A,4851.8176,N,00226.8405,E,0.00,102.02,091212,,,A*6E
$GPGGA,123035.000,4851.8176,N,00226.8405,E,1,04,3.5,60.7,M,47.3,M,,0000*66
$GPRMC,123035.000,A,4851.8176,N,00226.8405,E,0.00,102.02,091212,,,A*6F
$GPGGA,123036.000,4851.8176,N,00226.8405,E,1,04,3.5,60.7,M,47.3,M,,0000*65
$GPRMC,123036.000,A,4851.8176,N,00226.8405,E,0.00,102.02,091212,,,A*6C
$GPGGA,123037.000,4851.8176,N,00226.8405,E,1,04,3.5,60.7,M,47.3,M,,0000*64
$GPRMC,123037.000,A,4851.8176,N,00226.8405,E,0.00,102.02,091212,,,A*6D
$GPGGA,123038.000,4851.8176,N,00226.8405,E,1,04,3.5,60.7,M,47.3,M,,0000*6B
$GPRMC,123038.000,A,4851.8176,N,00226.8405,E,0.00,102.02,091212,,,A*62
$GPGGA,123039.000,4851.8176,N,00226.8405,E,1,04,3.5,60.7,M,47.3,M,,0000*6A
$GPRMC,123039.000,A,4851.8176,N,00226.8405,E,0.00,102.02,091212,,,A*63
$GPGGA,123040.000,4851.8176,N,00226.8405,E,1,04,3.5,60.7,M,47.3,M,,0000*64
$GPRMC,123040.000,A,4851.8176,N,00226.8405,E,0.00,102.02,091212,,,A*6D
$GPGGA,123041.000,4851.8176,N,00226.8405,E,1,04,3.5,60.7,M,47.3,M,,0000*65
$GPRMC,123041.000,A,4851.8176,N,00226.8405,E,0.00,102.02,091212,,,A*6C
$GPGGA,123042.000,4851.8176,N,00226.8405,E,1,04,3.5,60.7,M,47.3,M,,0000*66
$GPRMC,123042.000,A,4851.8176,N,00226.8405,E,0.00,102.02,091212,,,A*6F
$GPGGA,123043.000,4851.8176,N,00226.8405,E,1,04,3.5,60.7,M,47.3,M,,0000*67
$GPRMC,123043.000,A,4851.8176,N,00226.8405,E,0.00,102.02,091212,,,A*6E
$GPGGA,123044.000,4851.8176,N,00226.8405,E,1,04,3.5,60.7,M,47.3,M,,0000*60
$GPRMC,123044.000,A,4851.8176,N,00226.8405,E,0.00,102.02,091212,,,A*69
$GPGGA,123045.000,4851.8176,N,00226.8405,E,1,04,3.5,60.7,M,47.3,M,,0000*61
$GPRMC,123045.000,A,4851.8176,N,00226.8405,E,0.00,102.02,091212,,,A*68
$GPGGA,123046.000,4851.8176,N,00226.8405,E,1,04,3.5,60.7,M,47.3,M,,0000*62
$GPRMC,123046.000,A,4851.8176,N,00226.8405,E,0.00,102.02,091212,,,A*6B
$GPGGA,123047.000,4851.8176,N,00226.8405,E,1,04,3.5,60.7,M,47.3,M,,0000*63
$GPRMC,123047.000,A,4851.8176,N,00226.8405,E,0.00,102.02,091212,,,A*6A
$GPGGA,123048.000,4851.8176,N,00226.8405,E,1,04,3.5,60.7,M,47.3,M,,0000*6C
$GPRMC,123048.000,A,4851.8176,N,00226.8405,E,0.00,102.02,091212,,,A*65
$GPGGA,123049.000,4851.8176,N,00226.8405,E,1,04,3.5,60.7,M,47.3,M,,0000*6D
$GPRMC,123049.000,A,4851.8176,N,00226.8405,E,0.00,102.02,091212,,,A*64
$GPGGA,123050.000,4851.8176,N,00226.8405,E,1,04,3.5,60.7,M,47.3,M,,0000*65
$GPRMC,123050.000,A,4851.8176,N,00226.8405,E,0.00,102.02,091212,,,A*6C
$GPGGA,123051.000,4851.8176,N,00226.8405,E,1,04,3.5,60.7,M,47.3,M,,0000*64
$GPRMC,123051.000,A,4851.8176,N,00226.8405,E,0.00,102.02,091212,,,A*6D
$GPGGA,123052.000,4851.8176,N,00226.8405,E,1,03,10.4,60.7,M,47.3,M,,0000*53
$GPRMC,123052.000,A,4851.8176,N,00226.8405,E,0.00,102.02,091212,,,A*6E
$GPGGA,123053.000,4851.8176,N,00226.8405,E,1,04,3.5,60.7,M,47.3,M,,0000*66
$GPRMC,123053.000,A,4851.8176,N,00226.8405,E,0.00,102.02,091212,,,A*6F
$GPGGA,123054.000,4851.8176,N,00226.8405,E,1,04,3.5,60.7,M,47.3,M,,0000*61
$GPRMC,123054.000,A,4851.8176,N,00226.8405,E,0.00,102.02,091212,,,A*68
$GPGGA,123055.000,4851.8176,N,00226.8405,E,6,00,50.0,60.7,M,47.3,M,,0000*50
$GPRMC,123055.000,A,4851.8176,N,00226.8405,E,0.00,102.02,091212,,,E*6D
$GPGGA,123056.000,4851.8176,N,00226.8405,E,6,00,50.0,60.7,M,47.3,M,,0000*53
$GPRMC,123056.000,A,4851.8176,N,00226.8405,E,0.00,102.02,091212,,,E*6E
$GPGGA,123057.000,4851.8176,N,00226.8405,E,6,00,50.0,60.7,M,47.3,M,,0000*52
$GPRMC,123057.000,A,4851.8176,N,00226.8405,E,0.00,102.02,091212,,,E*6F
$GPGGA,123058.000,4851.8162,N,00226.8292,E,1,03,4.2,81.5,M,47.3,M,,0000*6A
$GPRMC,123058.000,A,4851.8162,N,00226.8292,E,5.25,315.28,091212,,,A*67
$GPGGA,123059.000,4851.8167,N,00226.8267,E,1,03,4.2,81.0,M,47.3,M,,0000*61
$GPRMC,123059.000,A,4851.8167,N,00226.8267,E,5.36,304.97,091212,,,A*6F
$GPGGA,123100.000,4851.8168,N,00226.8274,E,1,03,4.2,80.5,M,47.3,M,,0000*65
$GPRMC,123100.000,A,4851.8168,N,00226.8274,E,3.38,306.61,091212,,,A*6C
$GPGGA,123101.000,4851.8173,N,00226.8262,E,6,00,50.0,80.4,M,47.3,M,,0000*5F
$GPRMC,123101.000,A,4851.8173,N,00226.8262,E,3.38,306.61,091212,,,E*64
$GPGGA,123102.000,4851.8179,N,00226.8251,E,6,00,50.0,80.3,M,47.3,M,,0000*51
$GPRMC,123102.000,A,4851.8179,N,00226.8251,E,3.38,306.61,091212,,,E*6D
$GPGGA,123103.000,4851.8185,N,00226.8239,E,6,00,50.0,80.2,M,47.3,M,,0000*5C
$GPRMC,123103.000,A,4851.8185,N,00226.8239,E,3.38,306.61,091212,,,E*61
$GPGGA,123104.000,4851.8190,N,00226.8228,E,6,00,50.0,80.1,M,47.3,M,,0000*5C
$GPRMC,123104.000,A,4851.8190,N,00226.8228,E,3.38,306.61,091212,,,E*62
$GPGGA,123105.000,4851.8196,N,00226.8216,E,6,00,50.0,80.0,M,47.3,M,,0000*57
$GPRMC,123105.000,A,4851.8196,N,00226.8216,E,3.38,306.61,091212,,,E*68
$GPGGA,123106.000,4851.8201,N,00226.8205,E,6,00,50.0,79.9,M,47.3,M,,0000*54
$GPRMC,123106.000,A,4851.8201,N,00226.8205,E,3.38,306.61,091212,,,E*64
$GPGGA,123107.000,4851.8207,N,00226.8194,E,6,00,50.0,79.8,M,47.3,M,,0000*59
$GPRMC,123107.000,A,4851.8207,N,00226.8194,E,3.38,306.61,091212,,,E*68
$GPGGA,123108.000,4851.8213,N,00226.8182,E,6,00,50.0,79.7,M,47.3,M,,0000*5B
$GPRMC,123108.000,A,4851.8213,N,00226.8182,E,3.38,306.61,091212,,,E*65
$GPGGA,123109.000,4851.8218,N,00226.8171,E,6,00,50.0,79.6,M,47.3,M,,0000*5C
$GPRMC,123109.000,A,4851.8218,N,00226.8171,E,3.38,306.61,091212,,,E*63
                                                                                                                              
   